Station,lat,lon
ул. Назарбаева–ул.Хаджымукана,43.224545,76.953318
пр.Аль-Фараби-ул.Мендикулова,43.2287,76.9541
ул. Мендикулова - ул. Бектурова,43.2324,76.9532
пр. Достык - ул. Жолдасбекова ,43.234857,76.958203
ул.Сатпаева - пр.Достык,43.239,76.9577
ул. Сатпаева - пр. Назарбаева,43.2391,76.9492
пр. Абая - пр. Достык,43.2432182,76.956374
Станция метро ,43.2428603,76.9514523
ул.Кунаева – ул.Курмангазы,43.245,76.9513889
пр. Назарбаева - ул. Шевченко ,43.2466,76.948
Ул.Богенбай батыра - ул.Валиханова,43.253621,76.95212
ул.Пушкина - ул.Кабанбай батыра,43.2505,76.9541
пр. Назарбаева - ул. Кабанбай батыра,43.2497,76.9476
ул. Толе би - пр. Назарбаева,43.2551105,76.9469313
ул. Кунаева - ул. Айтеке би,43.2584736,76.9499674
Центральный парк культуры и отдыха им.Горького,43.2611111,76.9657778
ул.Гоголя – ул.Каирбекова,43.2610278,76.961
ул. Гоголя - пр. Достык,43.2604168,76.9548231
ул.Макатаева – ул.Калдаякова,43.2646944,76.9575
ул.Нусупбекова – ул.Маметова,43.267946,76.955043
Ул. Маметовой – ул.Кунаева,43.2675833,76.9482222
ул.Пушкина – пр.Райымбека ,43.269329,76.951816
пр.Аль-Фараби - ул.Козыбаева,43.2286197,76.9479147
пр.Аль-Фараби -пр.Сейфуллина,43.227,76.9412
пр. Аль-Фараби -  ул.Бальзака,43.2232,76.936
ТРЦ Esentai Mall,43.2177435,76.9281458
пр.Аль-Фараби–ул.Ремизовка,43.215427,76.924373
пр.Аль-Фараби Университет ,43.210718,76.917639
ул.Ходжанова - пр.Аль-Фараби  ,43.206754,76.9133196
Исиналиева 37 (мкрн.Казахфильм),43.1980652,76.9070573
ул.Ходжанова - ул.Ергожина,43.2108069,76.9076899
ул.Жарокова - ул.Левитана,43.2039355,76.9042977
ул.Гагарина - ул.Кожабекова,43.20075,76.899056
ул.Розыбакиева – пр. Аль-Фараби,43.196861,76.894539
ул.Розыбакиева (ТРЦ MEGA Alma-Ata),43.201913,76.894507
пр.Аль-Фараби – ул.Мустафина ,43.194999,76.880626
ул.Биржана – ул.Мустафина ,43.198143,76.88054
ул.Ходжанова - Жарокова,43.2105876,76.9035454
ул.Жарокова - ул.Байкадамова,43.215234,76.9029077
ул. Гагарина - ул. Ходжанова,43.2103789,76.8984417
"ул.Гагарина, 292 (выше ул. Ескараева)",43.2062702,76.8988118
ул.Абиша Кекилбайулы (колледж искусств имени Т.К.Жургенова),43.206113,76.889727
ул.Мустафина – ул.Торайгырова,43.202634,76.878809
"ул.Торайгырова, 19 (Колледж им.Сулеймана Демиреля)",43.202,76.8754
ул.Рыскулбекова – ул.Саина ,43.204197,76.867354
ул.Рыскулбекова – ул.Сулейменова,43.2066294,76.8796605
ул. Утепова - ул. Жарокова,43.219364,76.901815
ул. Утепова - ул. Гагарина,43.2187418,76.897073
ул. Утепова - ул. Розыбакиева,43.218817,76.892202
ул.Абиша Кекилбайулы - ул. Журавлева,43.2152166,76.8881223
ул.Гагарина – ул.Басенова,43.2215068,76.8970087
ул. Тимирязева - ул. Байтурсынова,43.2313,76.9345
ул.Тимирязева - река Есентай (КазНУ им.Аль-Фараби),43.2266824,76.9243329
ул. Тимирязева - ул.Манаса,43.2261,76.911
ул.Тимирязева - ул.Ауэзова (Атакент),43.2257,76.9064
ул. Тимирязева - ул. Жарокова,43.225355,76.900758
ул.Тимирязева - ул.Розыбакиева,43.2249749,76.8917251
ул.Сатпаева - ул.Наурызбай батыра,43.2377719,76.9382913
ул.Сатпаева – пр.Сейфуллина,43.2377384,76.9348354
ул. Сатпаева - ул. Масанчи,43.2373,76.931
ул.Байтурсынова – ул.Габдуллина,43.2336566,76.9315733
ул.Байтурсынова - бульвар Бухар Жырау,43.2362,76.928
бульвар Бухар жырау - река Есентай,43.2317921,76.9201793
ул.Ауэзова - ул.Габдулина ,43.228,76.9058
ул.Ауэзова - бульвар Бухар Жырау,43.2309643,76.904766
ул.Жандосова – ул.Жарокова,43.2322375,76.900181
ул.Жандосова - ул.Гагарина ,43.2303,76.8958
ул.Жандосова – ул.Розыбакиева,43.227652,76.890985
ул.Сатпаева - река Есентай,43.2366,76.9217
ул.Сатпаева - ул.Байзакова,43.236758,76.914953
ул.Сатпаева –  ул.Ауэзова,43.2357,76.9043
ул.Сатпаева – ул.Жарокова,43.234934,76.899823
ул.Сатпаева - ул.Гагарина,43.235,76.895
ул.Сатпаева – ул.Розыбакиева,43.234815,76.890101
ул.Сатпаева – ул.Брусиловского,43.233986,76.8793
"Станция метро ""Байконур""",43.2385707,76.9275395
"Станция метро ""Театр им. Мухтара Ауэзова""",43.2402,76.9172
пр.Абая – ул.Байзакова,43.24,76.914
ул.Манаса - ул.Мынбаева,43.237032,76.908878
пр.Абая – ул.24 июня,43.239555,76.90733
Станция метро ,43.2387569,76.8983679
пр.Абая – ул.Гагарина ,43.2387,76.8955
пр.Абая – ул.Розыбакиева,43.2383,76.8904
пр.Абая – ул.Тургут Озала,43.2378,76.8835
пр.Абая – ул.Брусиловского,43.2368,76.8785
пр.Абая – ул.Тлендиева,43.2359466,76.8758721
пр. Абая - ул. Абылай хана,43.2423882,76.9432418
ул.Курмангазы - ул.Шарипова,43.2433401,76.9236961
ул.Курмангазы - ул.Муканова,43.2424,76.9165
ул. Желтоксан - ул. Шевченко,43.2461,76.9411
ул.Шевченко - пр.Сейфуллина,43.2456,76.9337
ул. Шевченко  - ул. Байтурсынова,43.245598,76.926952
ул.Шевченко - ул.Муканова,43.2444,76.9163
ул.Шевченко - ул.Ауэзова,43.2433,76.9038
ул.Шевченко - ул.Гагарина,43.2428162,76.8940273
ул.Шевченко - ул.Розыбакиева,43.242258,76.889494
ул.Жамбыла - ул.Муратбаева ,43.2459,76.9198
ул.Жамбула–ул.Манаса,43.245,76.9077
ул.Жамбыла - ул.Айманова,43.244505,76.896255
ул.Шакарима – ул.Брусиловского,43.242347,76.877691
ул. Кабанбай батыра - ул. Желтоксан ,43.2494,76.9402
ул. Кабанбай батыра - ул.Мауленова,43.248819,76.935447
ул.Карасай - ул.Байтурсынова ,43.25,76.9264
ул. Кабанбай батыра – ул.Шарипова,43.2479529,76.9230966
ул.Карасай батыр – ул.Муратбаева,43.2495328,76.9187534
ул.Карасай батыра - ул.Байзакова,43.249351,76.91206
Ул. Карасай батыра - ул. Клочкова,43.2481622,76.9008683
ул.Карасай батыра - ул.Гагарина,43.2479,76.8934
ул.Карасай батыра - ул.Розыбакиева,43.2474029,76.8888349
ул.Толе би – ул.Желтоксан,43.2544444,76.9394444
ул.Толе би - ул.Наурызбай батыра,43.2541,76.936
ул.Богенбай батыр - ул.Масанчи,43.2521386,76.9303013
ул. Толе би – пр. Сейфуллина,43.2536452,76.9310673
ул.Толе би – ул Байтурсынова,43.2536111,76.9258333
ул.Толе би- ул. Муратбаева,43.2532487,76.9188743
ул.Толе би – ул.Байзакова,43.2525725,76.9108289
ул.Толе би – ул.Жарокова,43.2509873,76.8976369
пр. Толе би - ул. Гагарина,43.2510993,76.893704
ул.Толе би – ул.Розыбакиева,43.250707,76.888421
ул.Толе би – ул.Гайдара,43.250288,76.882933
ул.Гоголя - ул.Наурызбай батыра,43.2594725,76.9358375
ул.Гоголя – пр.Сейфуллина ,43.2594768,76.9323405
ул.Гоголя – ул.Байтурсынова,43.2585115,76.9261219
ул.Гоголя - ул.Шагабутдинова,43.258138,76.919957
ул.Гоголя – ул.Байзакова ,43.2573056,76.9109722
ул.Гоголя – ул.Ауезова ,43.2565278,76.9018333
ул. Жибек жолы - ул. Панфилова,43.2628805,76.9441494
ул. Жибек жолы - ул. Желтоксан,43.261615,76.938959
ул. Макатаева – ул.Наурызбай батыра,43.2633611,76.9352778
ул. Макатаева – пр.Сейфуллина,43.2626944,76.9314722
ул.Макатаева–ул.Байтурсынова,43.262619,76.924713
ул.Маметовой – ул.Панфилова;,43.2673056,76.9435278
ул.Маметова – ул.Абылай хана ,43.2668486,76.9402204
пр.Райымбека – пр. Назарбаева,43.2701102,76.9445219
пр.Райымбека – ул.Абылай хана ,43.2696385,76.9397759
ул.Рыскулбекова – ул.Навои ,43.2074536,76.8839551
ул.Сулейменова – ул.Пятницкого,43.213025,76.8783469
ул.Жандосова – ул.Алтынсарина,43.2166856,76.8763177
"ул.Жандосова, 144/1 (Университет Нархоз)",43.214657,76.872855
ул.Жандосова – ул.Берегового,43.211298,76.868351
ул.Жандосова – ул.Саина,43.208042,76.864047
ул.Алтынсарина – ул.Юрия Кима ,43.219831,76.871953
ул.Саина - ул.Юрия Ким,43.210849,76.860071
ул.Шаляпина - ул.Щепеткова,43.227076,76.874311
ул.Шаляпина – ул.Алтынсарина,43.221258,76.8689577
ул.Шаляпина – ул.Берегового,43.217428,76.863722
"мкрн. Мамыр 2, дом 3",43.2113403,76.8497692
Ул. Шаляпина - ул. Момышулы,43.209695,76.8426902
"Станция метро ""Москва""",43.2311,76.8685
пр.Абая – ул.Алтынсарина ,43.2265,76.8626
"Станция метро ""Сары-Арка""",43.223999,76.8592
пр.Абая – ул.Саина,43.2202,76.8524
"​мкрн Жетысу-3, 24/2",43.2184331,76.8457678
"Станция метро Станция метро ""Бауыржан Момышулы""",43.216618,76.838242
по ул. Момышулы ниже пр.Абая,43.2178308,76.8390507
"мкрн Жетысу-1, дом 30",43.2211087,76.8377471
"ул.Алтынсарина, 24А (кинотеатр Сарыарка)",43.2290725,76.8592145
ул.Саина – ул.Улугбека,43.226683,76.845741
По ул.Улугбека ( между ул. Саина и ул.Момышулы),43.2252573,76.8395711
ул. Момышулы - ул. Улугбека,43.2247834,76.8364792
ул.Жубанова - ул.Алтынсарина,43.234918,76.853492
ул.Жубанова - ул. Айриха,43.23257,76.84415
По ул.Жубанова (между ул.Саина и ул.Момышулы),43.2309348,76.836416
ул. Момышулы - ул. Жубанова,43.230069,76.8337237
Ул. Момышулы - ул. Маргулана,43.2327304,76.8327054
ул.Кабдолова – ул.Утеген батыр ,43.2397553,76.8588036
ул.Толе би – ул.Утеген батыра,43.2454947,76.8557416
ТЦ ,43.2384756,76.8402994
ул. Толе би - ул. Момышулы,43.2384863,76.8296743
"мкрн Аксай - 1А, 14 ",43.2404187,76.8287032
Фэмили парк ,43.22414,76.85857
пр. Райымбека - пр.Сейфуллина,43.2699444,76.9305
пр.Рыскулова - ул.Момышулы (Магнум),43.2505285,76.8244697
"мкрн Нуркент, 57 (Торгово - административный комплекс)",43.2536278,76.8212847
"мкрн Нуркент, 37",43.2564219,76.822015
bike,43.2601354,76.8203982
