Station,lat,lon
Johannes Schrantstraat,51.0538571,3.7016084
Watt the factory,51.0566235,3.7007879
Gelukstraat 27,51.0587906,3.7285286
Strandlaan 26,51.0447825,3.6871504
P+R WEBA/Decathlon,51.0741012,3.7440595
Campo Santo Plein,51.0646176,3.7484391
Verlorenkost 11,51.0464758,3.721487
Fjordenstraat,51.0691143,3.7387751
Victor Braeckmanlaan 180,51.0601714,3.7607947
Campinglaan 14,51.0463735,3.6808789
Station Dampoort,51.0566121,3.74037
Zwijnaardsesteenweg 439 ,51.0263776,3.7219716
Karel van Hulthemstraat 36,51.0441471,3.7230422
Dronkey,51.0391223,3.7261586
Kalvermarkt,51.0555936,3.7317376
Geraard Mercatorstraat 28,51.063655,3.7272622
Neringstraat 2,51.0545013,3.7444318
Recollettenlei 16,51.0499184,3.7195842
Krijgslaan 163,51.0315026,3.7204142
Korte Meer,51.0504691,3.722482
Tweekerkenstraat,51.0426564,3.7274674
MSK - Museum voor Schone Kunsten,51.0374978,3.7239026
Driesstraat 1a,51.0388358,3.7410998
Grote Huidevettershoek 1,51.0493163,3.7269116
Nieuwewandeling 18,51.0556142,3.7073491
Neuseplein,51.0670694,3.727598
Gordunakaai 1,51.042648,3.7104159
KAA Gent Stadion,51.0147138,3.7343618
Hoveniersstraat 15,51.0373771,3.7426545
Groot-Brittanniëlaan 147,51.043432,3.7119298
Justus De Harduwijnlaan 3,51.066559,3.7285682
Rozemarijnstraat 2,51.0504521,3.7096885
Meulesteedsesteenweg 438/498,51.084941,3.7274245
Jan van Stopenberghestraat 2,51.0535493,3.7212226
Van Den Heckestraat 7,51.0369233,3.7444712
Tentoonstellingslaan 128,51.0385755,3.730624
2de Gent-Sint-Pietersstation Noord,51.0370561,3.7102414
P+R Muide,51.0734858,3.7338635
Woodrow Wilsonplein,51.0483397,3.7309618
Acaciastraat 12b,51.0608856,3.6999198
Bij Sint-Jozef 30,51.0630376,3.7101848
Predikherenlei ,51.0526566,3.7209716
Savaanstraat 47,51.0489781,3.726748
3de Gent-Sint-Pietersstation Noord,51.0364314,3.7130812
KASK,51.0455266,3.7186354
Dok-Noord 31,51.0700658,3.7303195
Druifstraat 6,51.0626144,3.6932442
Patrijsstraat 12,51.0743508,3.7324745
Doornzelestraat 70,51.0642562,3.7324628
Vrijdagsmarkt ,51.0573906,3.7252658
Plantentuin ,51.0364097,3.7222842
Gent-Sint-Pietersstation Zuid,51.0347452,3.7089006
Dronkey 2,51.0407704,3.7256633
Batterijstraat 31,51.0600721,3.7050422
Oostakker hub,51.0993927,3.7648492
Wolterslaan 160,51.0476303,3.7511836
FilmFest KASKCinema,51.045314,3.7145362
P+R Ledeberg,51.0365714,3.7386892
Pieter de Keyserestraat,51.0538131,3.7335358
Muinkkaai 34,51.0449481,3.728668
UZGent verzamelplaats,51.0249992,3.7228879
resto,51.0704647,3.7124978
Nieuwpoort 31,51.0561403,3.7300175
Ganzendries,51.0623076,3.6916594
Vaartstraat 2/110,51.0706364,3.6930576
Groentenmarkt ,51.0557623,3.722004
UGent Campus Dunant,51.0488106,3.7038527
Ankerslaan 19,51.0384054,3.7498162
Blandijnberg 2,51.0440229,3.7251746
Hogeschool Gent,51.0283331,3.7062271
Coupure Links 323,51.0490795,3.7116894
Ossenstraat 2,51.0529075,3.7387522
Wasstraat 116,51.0560957,3.7444236
Belfortstraat 18,51.0553011,3.726792
XIOR Student Housing ,51.0343421,3.7042949
Pannenkoekenhuis,51.052252,3.7232608
Antwerpenplein 1 ,51.0577765,3.7412685
Bijloke site,51.0440697,3.7186644
Underground Artevelde Hogeschool The Platform,51.0294254,3.721627
Gouvernementstraat 34,51.0506548,3.7263568
Goudenleeuwplein 1,51.0539409,3.7251371
Vlaanderenstraat 3,51.0514117,3.7286276
Hembysebolwerk,51.05695,3.7074666
Voormuide 41,51.0684882,3.7294424
Sint-Michielsplein 16,51.0538692,3.7189684
Bij Sint-Jacobs 3F,51.0565567,3.7265888
Koningin Fabiolalaan 76,51.0388912,3.701733
Wittemolenstraat 40,51.0565756,3.7495297
Gouvernementstraat,51.0522882,3.7271215
Centrumplein 76,51.0356267,3.7405906
Victoriastraat 9,51.0354645,3.7240804
Knokkestraat 56,51.0377781,3.7122689
Sint-Michielsbrug (bovenaan parkeren),51.053937,3.7211362
Voldersstraat 72,51.0525333,3.7229279
Braemstraat 65,51.0337271,3.7630913
Hogent Mercator,51.0434313,3.7140364
Maurice de Weerdstraat 9,51.0463248,3.716357
Kortrijksepoortstraat,51.0438426,3.7215985
Arbedpark,51.0453548,3.7533871
Groendreef 133,51.0655317,3.6993996
Wazenaarstraat 3,51.0407726,3.7447574
Kunstlaan 1,51.0412335,3.7252314
Portugalstraat 13,51.0579847,3.704422
Filips van Marnixstraat 75,51.0402522,3.7189144
Onderstraat 21a,51.056168,3.7245457
Kozijntjesstraat 1,51.0527592,3.7334048
Krijgslaan 100,51.0334311,3.72049
Raveschootstraat,51.0410138,3.7335682
Oscar Colbrandtstraat 153,51.0566492,3.7573754
Diksmuidestraat 52,51.0312607,3.7226933
Leiestraat 3,51.0568008,3.7039706
Filips van Arteveldestraat,51.0505419,3.7349825
Coupure 649,51.052673,3.7093688
Vrijdagsmarkt 36,51.0566856,3.7260831
Beemdstraat 5,51.0411883,3.7152769
Heerweg-Zuid 24,51.0015523,3.7124946
St-John,51.0564071,3.7284633
Korenmarkt,51.0541922,3.7220109
Papegaaistraat 59,51.0506871,3.7130943
Hoornstraat,51.0522518,3.721387
Hoogpoort 44,51.0551683,3.7238052
Peerstraat 2,51.0591027,3.6923874
Drongensesteenweg 54,51.0569827,3.6998732
Stadhuis hoogpoort,51.0547416,3.725299
Kasteellaan 54,51.049469,3.7396381
Franklin Rooseveltlaan 457,51.0432014,3.7325584
Vijfwindgatenstraat 23,51.0444101,3.7340243
Braemstraat Nachtwinkel,51.0321145,3.7613247
Kortrijksesteenweg 600,51.0312383,3.7132221
Adriaan Pietersstraat 1,51.0713864,3.6864705
2de Stadhuis hoogpoort,51.0548822,3.7247599
Muinkkaai 119,51.0417154,3.7293423
Tramhalte Don Bosco,51.0231244,3.6989272
Minnemeers-baudelokaai GF,51.0596117,3.7298735
Leo Tertzweillaan 42,51.0427279,3.7520773
Sint-Juliaanstraat 28/32,51.0335332,3.7315122
Nieuwbrugkaai 79,51.0548227,3.7335079
Coupure Links 431,51.0501806,3.7102739
Krommewal,51.0595352,3.72582
3de Korenmarkt,51.0554623,3.7221769
Nieuwland 1,51.0602571,3.7293461
Sint-Margrietstraat 30,51.059302,3.720876
HoGent Sporthal,51.0351449,3.7044468
Pekelharing 2,51.0490068,3.7194917
Laperre,51.0566891,3.7286189
Land van Waaslaan 128,51.0585209,3.7475825
Café Robot,51.0460761,3.7159143
Bassijnstraat 2,51.0455618,3.7477834
Victor Frisstraat 57,51.0630107,3.7074887
Frans de Coninckstraat 5,51.0312427,3.7437784
Bar Oswald,51.0678339,3.7281344
Kapitein Zeppos,51.0716931,3.7351387
Oude beestenmarkt,51.0541228,3.7313433
Bibliotheekstraat 1,51.0571073,3.7286481
Meersstraat 102,51.0403183,3.7138052
Martelaarslaan 12,51.0494639,3.7051365
Sint-Pietersnieuwstraat 41,51.0455922,3.7267941
P+R Bourgoyen,51.0671332,3.682853
Ottogracht 55,51.0588285,3.7267639
Charles de Kerchovelaan 4b,51.0416931,3.719268
Sparrestraat 23,51.0595685,3.6985802
Spiegelhofstraat,51.0527507,3.7040082
Sparrestraat 2,51.059938,3.6992412
Kerkstraat 130,51.0440985,3.7494853
Karel Lodewijk Dierickxstraat 47,51.0524547,3.7053876
Gasmeterlaan 191,51.0673695,3.7227782
Poel 15,51.0545287,3.7173127
Belgradostraat 67,51.0509493,3.7320597
Zilverenberg 21,51.0547336,3.7318704
Voldersstraat,51.0522187,3.7248078
Coupure 669,51.0544723,3.7087806
Korenbloemstraat 42,51.0525091,3.7062389
Jubileumlaan vlaggen,51.0449481,3.7076045
Jubileumlaan Maison Rouge,51.0464704,3.7072633
Nieuwevaart,51.065956,3.7091989
Het Rustpunt,51.0562604,3.716088
Artevelde Hogeschool Watersportbaan,51.0482402,3.7025284
Artevelde Hogeschool Willem de Beersteeg,51.0600869,3.7274059
Artevelde Hogeschool Brusselsepoortstraat,51.0429092,3.73865
Artevelde Hogeschool Kantienberg,51.0408355,3.7280603
Blok E artevelde,51.0419757,3.7243206
schommelstraat 46,51.0642746,3.7074351
Roodborstjesstraat,51.0811966,3.7048535
Aleksander BizDev,51.0630511,3.7278671
Gildestraat 2,51.0548394,3.7302259
Huidevetterskaai 39/40,51.0609376,3.7277436
Brouwerstraat 1,51.0552908,3.7164211
Paul Bergmansdreef 2,51.0368292,3.7208652
Groenebriel 1,51.0616534,3.7211293
Onderstraat 71,51.0554408,3.7261504
Reigerstraat 50,51.0339931,3.7089561
Sint-Denijslaan 431,51.0359502,3.6954795
Sint-Martensstraat 1,51.0509813,3.7183656
Frederik Burvenichstraat 132,51.0402815,3.7529484
Campus Ledeganck,51.0366069,3.7245323
Citadellaan 8,51.0383748,3.7267299
François Laurentplein 10,51.0505956,3.7278433
Wielewaalstraat 70,51.0653969,3.6964434
Center Parking,51.0509608,3.722596
Pijndersstraat 36,51.0581783,3.7362448
Emilius Seghersplein,51.0595563,3.7035818
Kouter 175,51.050446,3.7247839
Lijsterstraat 1,51.0669537,3.6976044
Kogelstraat 101,51.0608167,3.7418876
Vlaamsekaai 86,51.0449118,3.7429104
Fietssnelweg,51.0761568,3.7153936
Gustaaf Mangelstraat,51.0459356,3.7260213
Goedendagstraat,51.0830462,3.7281002
Hubert Frere Orbanlaan,51.0464312,3.732826
Braemstraat 67,51.0340321,3.7636184
Sterre Hoofdingang,51.0265572,3.7141567
Lucas Munichstraat 29,51.0555557,3.7361641
Lobeliastraat,51.0632119,3.7000761
LDC De Horizon ,51.0516768,3.7365961
Emile Moysonlaan,51.0479245,3.7475342
Charles de Kerchovelaan 307,51.0392918,3.7244372
Groendreef 27,51.0611738,3.7042604
Pollepelstraat,51.0476374,3.7245007
Sparrestraat 61,51.0589886,3.6975946
Korenbloemstraat 3,51.051715,3.7066536
Brankardierstraat 18,51.0514793,3.7047536
Brankardierstraat 48,51.0520113,3.7043322
Zuidkaai  11,51.0585165,3.7066422
Zwarte Doos,51.0456025,3.7502217
Verkortingstraat 102,51.0646903,3.7521296
Limburgstraat,51.0520591,3.7278779
keizerkarelstraat 1 ,51.0534975,3.7314845
Sint-Jansvest,51.0500002,3.7277666
De Harp,51.0476075,3.7248735
De Harp 2,51.0482267,3.7242522
Bagattenstraat 54,51.0474509,3.7232937
Coupure Links 99,51.0465527,3.7172601
Burggravenlaan 220,51.0322354,3.7252528
Coupure Links 685,51.0551582,3.7085798
2de François Laurentplein,51.0506663,3.728155
Rhino Boulder gym,51.0548977,3.6992427
Artevelde Hogeschool Stropkaai 14,51.0369018,3.7303859
Sterre Zuid,51.0240214,3.713336
Tolhuislaan 77,51.0635508,3.7256125
Ekkergemstraat 34,51.0513956,3.7059044
Forelstraat 147,51.049713,3.7445566
Faculteit Diergeneeskunde,50.9981899,3.7670214
Bisdomplein GF,51.0526166,3.7288539
Melkerijstraat 49,51.026298,3.7316947
Coupure Links 15,51.0466084,3.7194902
Savaanstraat 78,51.0486187,3.7234384
Haspelstraat 49,51.0585863,3.7022347
Charlotte Despardstraat 30,51.060323,3.6892785
Koningin Astridpark,51.050248,3.7379477
Kongostraat 7,51.0606404,3.7310502
Brugsesteenweg 370,51.0685655,3.6850426
François Laurentplein,51.051422,3.7281736
Forelstraat 109,51.0487779,3.7430119
Voetweg 19,51.0406669,3.7272728
Volderstraat b&b hotel,51.0522008,3.7222339
Nadine Crappéstraat 12,51.0543356,3.6902522
P+R Gentbrugge,51.0324413,3.7590644
Sportstraat 212,51.0417894,3.7068596
Molenaarsstraat 3,51.0594992,3.7186853
2de Korenmarkt,51.0550299,3.7220518
Parklaan 98,51.0344795,3.717256
Ferdinand Lousbergskaai 139,51.0440376,3.7401502
Paddenhoek,51.051762,3.7247029
Meulesteedsesteenweg 146A,51.0760789,3.7304208
Blauw Kotje,51.0311431,3.7137303
P+R Galveston,51.0743332,3.7219552
Stapelplein 31,51.0642826,3.7339905
Gaston Crommenlaan 8,51.0363702,3.7357186
Hector van Wittenberghe,51.0587496,3.713344
Thai Center,51.0379481,3.711039
Corbiestraat 36,51.0331016,3.7238981
Vliegtuiglaan 10,51.0739085,3.7390308
Az Sint Lucas ,51.0614386,3.7202492
Ter Platen 32,51.0392373,3.7295442
Emanuel Hielstraat 105,51.0407663,3.7615006
Maïsstraat 213,51.0720608,3.7126556
Edmond Van Beverenplein 7,51.0729727,3.7097549
Beukelaarstraat,51.0612925,3.7024551
Forelstraat water,51.047414,3.73934
Zwijnaarde Overdekt,51.0124254,3.7077672
Anjelierstraat,51.0725219,3.7126014
Sint-Pietersnieuwstraat 35,51.0465209,3.7270528
Ekkergemstraat 9,51.0525839,3.7088423
Skate & Parkour,51.0492256,3.6875757
Emanuel Hielstraat 30,51.0446084,3.7587073
Oudburg 55,51.0591393,3.7248464
Stropstraat 157,51.0327095,3.7304218
Watt The Firms,51.0551047,3.7065574
Coupure Links Einde,51.0559268,3.708326
Ledebergplein 39,51.0374543,3.7412398
FilmFest vierNulvier,51.0476701,3.727033
Station Gentbrugge,51.0383084,3.7567656
Martelaarslaan 406,51.0485769,3.7094228
François Benardstraat 80,51.0419186,3.7316075
SMAK - Stedelijk Museum voor Actuele Kunst,51.0382829,3.7231035
Hector van Wittenberghestraat 55,51.059432,3.7123166
Meibloemstraat 120,51.0602159,3.6949114
Hospitaalbrug,51.0469277,3.7186038
Networks Gent,51.0288152,3.6939096
Sterre Noord,51.0262373,3.7128156
Alexianenplein 1,51.0521669,3.7174294
Maria Middelares bezoekers parking,51.0257732,3.7012117
Koningin Elisabethlaan 18,51.0376269,3.7147088
Kouter 29,51.0499047,3.7231159
Opgeëistenlaan 401,51.0630685,3.7159931
Campus Aula,51.0521984,3.7239713
Kompasplein 2,51.0643705,3.7374126
Europalaan 93,51.0447751,3.7001235
Kattenberg 2,51.0429065,3.7234729
Bij Sint-Jacobs 5,51.0566848,3.7268285
Bourgoyendreef,51.065758,3.686578
Bijlokevest 79,51.0476964,3.7123697
Brusselsesteenweg 1a,51.0419568,3.7412126
Laurent Delvaux straat 5,51.0421195,3.7197052
Ommegangstraat 2,51.0425649,3.7366551
-1 De Krook (underground),51.048445,3.7287204
Lange Violettestraat 227a,51.0454271,3.7351025
Reep,51.0535559,3.7308213
Zwijnaardsesteenweg 99 ,51.0347921,3.7258515
Oude Houtlei 124,51.0512725,3.7169903
Bij Sint-Jacobs 16,51.0561392,3.7277133
Guldenvliesstraat 2-32,51.0590604,3.7075347
Drongensesteenweg 97,51.0565155,3.6984831
Lamoraal van Egmontstraat 1,51.0391337,3.7165106
Hoogstraat 71,51.0552526,3.7125234
Fortlaan Citadelpark,51.0366249,3.7166989
Gebroedersvandeveldestraat,51.0507705,3.7193099
Blekerijstraat 50,51.0596372,3.7323693
Tuinwijklaan 9,51.0318595,3.7110521
Filips van Cleeflaan,51.0604647,3.7107695
Lange Kruisstraat 31,51.0523184,3.7257917
Marialand,51.0537828,3.7117455
Doornzelestraat 1,51.0639684,3.7295391
FilmFest StudioSkoop,51.0489671,3.7338274
Jozef Plateaustraat 45,51.0461967,3.7250625
Willem Wenemaerstraat,51.0392253,3.7305554
Coupure Links 503,51.0506898,3.7102022
Kuiperskaai 24,51.0490999,3.7296768
Lieven de Winnestraat 54,51.0490388,3.7142959
Steendam 27/29,51.05723,3.7297606
Tijgerstraat rondpunt,51.0401661,3.7323498
Zwijnaarde West,51.0103657,3.7077314
Kerkstraat 109,51.0445745,3.7535088
IKEA,51.0236911,3.6892353
De Pintelaan 28,51.0298803,3.728336
Patijntjestraat 11,51.0390628,3.7087229
Yachtdreef,51.0460194,3.7027896
Koolkapperstraat 18,51.0521476,3.7028285
Bernard Spaelaan 2,51.0501587,3.7095041
Drabstraat 12,51.0555032,3.7202343
Brusselsesteenweg 444,51.0382642,3.7472752
Filips Van Cleeflaan 113,51.0622929,3.7128817
Gestichtstraat 3,51.0172252,3.7196675
Flixbus Ghent,51.053617,3.7403016
Dok-Noord 5,51.0661776,3.7340293
Koophandelsplein,51.0504828,3.7204593
Sint-Veerleplein 4c,51.0567632,3.7213245
Kasteellaan 487,51.0557261,3.738719
Molenaarsstraat 22,51.0605629,3.7184658
Vlaanderenstraat 85,51.0502747,3.730164
Welvaartstraat 1 ,51.0676195,3.70002
Ham 155,51.0610287,3.7340166
Kiekenstraat 8,51.0642773,3.6979297
Voskenslaan 183,51.0302418,3.7060293
Jan van Gentstraat 36,51.056694,3.7355042
Coupure Links 501,51.0503505,3.7104104
Dok Noord 2,51.0666684,3.7319924
Gentbruggestraat 90,51.05023,3.7526381
Bleau,51.0494804,3.6814601
Achterleie 9,51.0601723,3.7256821
Coupure Links 187,51.0468605,3.7151619
Sint-Pietersnieuwstraat 13A,51.0482246,3.7272741
Antwerpsesteenweg 235,51.0614482,3.7485343
Lange Boomgaardstraat 29,51.0513088,3.7315707
Koningin Fabiolalaan 29,51.0377762,3.7064453
Abrahamstraat,51.0572295,3.7172372
Coyendanspark,51.0528738,3.735729
STAM - Stadsmuseum Gent,51.0433045,3.7177672
Ham 1,51.0570081,3.7329869
Botermarkt,51.0337559,3.7406861
Gent-Sint-Pietersstation Noord,51.0360093,3.7119168
Waldamkaai 13,51.0566811,3.7085281
Trimlaan 7,51.0471052,3.6824808
Kopenhagenstraat,51.0740496,3.7284415
Emiel Lossystraat 55h,51.0494013,3.7597954
Sint-Lievenspoort,51.0394125,3.7374997
Hogent Mercator,51.0424153,3.7162754
P+R The Loop tramhalte,51.025282,3.6929063
Moriaanstraat 70,51.0337461,3.7449185
Lentestraat 35,51.0352341,3.7303494
Kaarderijstraat 31,51.0553219,3.697488
Hortensiastraat 109,51.0697486,3.7046855
Notelaarstraat 43,51.0625251,3.7004741
Kraanlei 71,51.0576098,3.7237438
Heernisplein 23a,51.0525989,3.7481826
Neerscheldestraat 33,51.0429103,3.7435828
Ooievaarstraat 66,51.0581844,3.6986053
Kleindokkaai zuid,51.0575622,3.7391434
Kajuitstraat,51.0731978,3.731295
Fratersplein 1,51.0618368,3.7243753
Sint-Elisabethplein 3,51.0566867,3.713966
Acaciapark,51.06047,3.698906
Kompasplein,51.0648827,3.7379278
Einde Were 50,51.0508322,3.7022726
Jakobijnenstraat 4,51.0521876,3.7204115
Lousbergpark,51.0458166,3.7410848
Hofstraat 26,51.045921,3.7298503
Visserij 167,51.0449532,3.738983
Duifhuisstraat 73 ,51.0398793,3.7027029
Oude Houtlei 44,51.0529963,3.7167423
Keizervest 1,51.0419677,3.7397721
Sint-Widostraat,51.0579855,3.7193673
Vlasmarkt,51.0556282,3.7283088
P+R Watersportbaan,51.0495672,3.6873179
Ganzerik,51.0622904,3.6916473
De Post - Plein tegen zinloos geweld,51.0545363,3.7215992
Sint-Annastraat 3,51.0472983,3.7337091
Kogelstraat 2,51.0580561,3.7422591
Gatti De Gammondstraat 15,51.0601682,3.6903478
Rijksarchief,51.0474557,3.7224092
UGent Homes,51.0396756,3.7288916
Tolhuislaan 148,51.0648525,3.7266142
Studentenhuis,51.0474323,3.7222758
Groendreef 47,51.0620088,3.7031366
Brusselsesteenweg 316,51.0404691,3.7429901
Hubert Frère-Orbanlaan 634,51.0392616,3.7364216
Iepenstraat 2,51.0499168,3.7173279
Dukkeldamstraat,51.0780114,3.7300475
Vlierstraat 85,51.0327394,3.7266846
Ankerslaan 75,51.0396446,3.7506019
Oostendestraat 91,51.0351541,3.7151205
Linnenstraat 127,51.0684514,3.691455
FilmFest Kinepolis,51.0403997,3.7296512
Forelstraat 57,51.0478695,3.7412392
Gillis Coppinsstraat 2,51.0622302,3.7270899
P+R Viaduct Gentbrugge,51.0348576,3.7553025
Artevelde Hogeschool Sint Amandsberg,51.0623281,3.7467302
Vincent Evrardlaan 8,51.0449175,3.753857
