Station,lat,lon
(GDL-001) C. Epigmenio Glez./ Av. 16 de Sept.,20.666378,-103.34882
(GDL-002) C. Colonias  / Av.  Niños héroes,20.667228,-103.366
(GDL-003) C. Vidrio / Av. Chapultepec,20.66769,-103.368252
(GDL-004) C. Ghilardi /C. Miraflores,20.69175,-103.36255
(GDL-005) C. San Diego /Calzada Independencia,20.6811575,-103.339363
(GDL-006) C. Venustiano Carranza /C. Reforma,20.680717,-103.344415
(GDL-007) C. Epigmenio Glez./Av. Cristobal C.,20.666771,-103.350562
(GDL-008) C. J. Angulo / C. González Ortega,20.681871,-103.350396
(GDL-009) Calz. Federalismo/ C. J. Angulo,20.681984,-103.353835
(GDL-010) C. Cruz verde / C. Joaquin Angulo,20.6818519,-103.3573381
(GDL-011) C. Garibaldi / C. Frías,20.681081,-103.360099
(GDL-012) C. Joaquín Angulo / C. Ghilardi,20.6820683,-103.3629218
(GDL-013) C. Vidrio  / C. Marsella,20.667623,-103.370499
(GDL-014) C. J. Angulo/C José Clemente Orozco,20.6821447,-103.3659297
(GDL-015) C. Herrera y Cairo /C. Pedro Buzeta,20.683191,-103.369349
(GDL-016) C. Bernardo de Balbuena/C J. Angulo,20.682007,-103.372642
(GDL-017) Av. México /C. Bernardo de Balbuena,20.679086,-103.372841
(GDL-018) Av. México / C. Manuel M. Diéguez,20.679296,-103.370658
(GDL-019)  C. Juan Manuel / C. Andrés Terán,20.678835,-103.368045
(GDL-021) C. Nicolás Romero / C. Reforma,20.67966,-103.362224
(GDL-022) C. San Felipe /C Enrique D. de León,20.679389,-103.35913
(GDL-023) C. Jesús / C. San Felipe,20.679309,-103.356281
(GDL-024) Av.  Federalismo / C. Juan Manuel,20.678777,-103.354035
(GDL-025) C. Reforma / C. González Ortega,20.680227,-103.350146
(GDL-026) C. Pedro Loza / C. Reforma,20.680478,-103.348377
(GDL-027) C. Belén / C. San Felipe,20.679861,-103.345198
(GDL-028) C. Gregorio Dávila /C. Manuel Acuña,20.6840145,-103.3612673
(GDL-029) Calz. Indep. /C. Juan Manuel,20.679899,-103.339438
(GDL-030) C. Pedro Moreno/ C. Progreso,20.675461,-103.367501
(GDL-031) C. Hospital / C. Andrés Terán,20.685652,-103.368215
(GDL-032) C. Degollado / Av. Hidalgo,20.6772627,-103.344908
(GDL-033) Av. Hidalgo / C. Pedro Loza,20.677419,-103.347983
(GDL-034) C. Morelos / C. Donato Guerra,20.676461,-103.350244
(GDL-035) C. Mezquitán / Av. Hidalgo,20.677315,-103.3534145
(GDL-036) C. Marcos Castellanos/ C. Morelos,20.676078,-103.356458
(GDL-037) C.Juan N. Cumplido /C. Independenci,20.678034,-103.358466
(GDL-038) C. Nicolás Romero / Av. Hidalgo,20.676656,-103.362331
(GDL-039) C. General Coronado / Av. Hidalgo,20.677108,-103.365088
(GDL-040) C. Morelos / C. Progreso,20.676067,-103.367049
(GDL-041) C. Manuel M. Diéguez / Av. Hidalgo,20.67671,-103.37066
(GDL-042) C. Bernardo de Balbuena /Av Hidalgo,20.676628,-103.372687
(GDL-043) C. Simón Bolivar / C. López Cotilla,20.673756,-103.372613
(GDL-044) C. Gral. San Martín /Av.  Vallarta,20.674636,-103.371639
(GDL-045) C. Pedro Moreno / C. Marsella,20.675444,-103.370147
(GDL-046) C. Emerson / Av. Vallarta,20.675014,-103.365025
(GDL-047) C. Robles Gil / Av. Vallarta,20.674931,-103.362351
(GDL-048) C. Constancio Hernández/ Av. Juaréz,20.674721,-103.358548
(GDL-049) Lopez Cotilla/ Marcos Castellanos,20.6740865,-103.3563196
(GDL-050) C. Pedro Moreno / Calz. Federalismo,20.675746,-103.354579
(GDL-051) C. 8 de Julio / Av. Juárez,20.674559,-103.352663
(GDL-052) Av. Juárez / Av. 16 de Septiembre,20.675244,-103.347889
(GDL-053) C. Maestranza / Av. Juárez,20.675401,-103.345665
(GDL-054) Av. Juárez / Calz. Independencia,20.675421,-103.342049
(GDL-055) C. Degollado /C.Prisciliano Sánchez,20.672696,-103.345366
(GDL-056) Av. 16 de Sept. / C. Miguel Blanco,20.671971,-103.347422
(GDL-057) C. Ocampo / C. Prisciliano Sánchez,20.672516,-103.349573
(GDL-058) C. Pavo / C. Prisciliano Sánchez,20.672641,-103.353542
(GDL-059) C. Miguel Blanco / C. Penitenciaria,20.672231,-103.355508
(GDL-060) C. Madero/ C. Camarena,20.6734,-103.357684
(GDL-061) C. Libertad /  C. Argentina,20.671778,-103.361274
(GDL-062) C. Libertad / C. Moscú,20.673072,-103.365055
(GDL-063) C. Colonias  / C. López Cotilla,20.674132,-103.366139
(GDL-064) C. Marsella / C. López Cotilla,20.673321,-103.370571
(GDL-065) C. Simón Bolivar / Av. La Paz,20.6722064,-103.372588
(GDL-066) C Lerdo de Tejada/C Gral. Sn Martín,20.671364,-103.371786
(GDL-067) Calzada Federalismo / C. Vidrio,20.6668825,-103.3555917
(GDL-068) C. Guadalupe Zuno / Av. Chapultepec,20.670512,-103.368306
(GDL-069) C. Colonias / C. Guadalupe Zuno,20.670468,-103.366071
(GDL-070) Av. La  Paz / C. Juan de Ojeda,20.671455,-103.363633
(GDL-071) Av. La Paz /Av.Enrique Díaz de León,20.670362,-103.359537
(GDL-072) Av. La Paz / C. Camarena,20.67056,-103.357589
(GDL-073) Av. La Paz / Av. Federalismo,20.669955,-103.355032
(GDL-074) C. Enrique González / C. Libertad,20.67131,-103.351651
(GDL-075) C. Pedro Rioseco /C. Nueva Galicia,20.669628,-103.348768
(GDL-076) C. Ramón Corona / C. Libertad,20.670243,-103.346195
(GDL-077) C. Argentina / C. Pedro Moreno,20.675631,-103.36134
(GDL-078) C. Comercio / C. La Paz,20.667946,-103.346775
(GDL-079)  C. Donato Guerra /Av. La Paz,20.6688627,-103.35130221
(GDL-080) C. Manuel Acuña / Av. Américas,20.68432,-103.373252
(GDL-081) C. Venezuela / Av. Niños Héroes,20.667352,-103.363338
(GDL-082) C. Gpe. Montenegro/C.Nuño de Guzman,20.669326,-103.362535
(GDL-083) C. Vidrio / Av. Enrique Díaz,20.667532,-103.3595222
(GDL-084) C. Montenegro / Av. Chapultepec,20.669306,-103.368312
(GDL-085) C. Gdpe. Zuno/ Av.  Unión,20.670426,-103.373378
(GDL-086) C. Simón Bolivar / Av. Niños Héroes,20.66704,-103.372444
(ZPN-001) Emilio Carranza /Carretera Tesistán,20.73244,-103.396083
(ZPN-002) C. Emilio Carranza /C. Independenci,20.726376,-103.397466
(ZPN-003) C. Emilio Carranza / Av. Hidalgo,20.723081,-103.398071
(GDL-220) Av. Científicos / C. Filósofos,20.69995,-103.342347
(ZPN-005) C. Del Corral / C. Anáhuac,20.730841,-103.394267
(ZPN-006) C. Sta. Rita / Av. Avila Camacho,20.71953,-103.386768
(ZPN-008) C. Vicente Guerrero / Av. Hidalgo,20.72201,-103.39427
(ZPN-010) C. Ramón Corona / C. Cuauhtémoc,20.723889,-103.394585
(ZPN-011) C. Pino Suárez / C. López Cotilla,20.726558,-103.389242
(ZPN-012) C. Pino Suárez / Av. Juan Pablo II,20.728538,-103.390297
(ZPN-013) C. Eva Briseño / C. Javier Mina,20.720438,-103.391894
(ZPN-014) C. Plata / Av. Laureles,20.7352743,-103.3997461
(ZPN-015) Blvr. de la Espuela / Blvr. Charros,20.735255,-103.394636
(ZPN-016) Av. Hidalgo/ C. Emiliano Zapata,20.721643,-103.3902
(ZPN-017) C. Juan Manuel / C. Pedro Moreno,20.72374,-103.388657
(ZPN-018) Av. Laureles / Blvrd. Panamericano,20.7276186,-103.3859946
(ZPN-020) Av. Aurelio Ortega / Av. Laureles,20.720987,-103.38625
(ZPN-021) Blvrd. Panamericano/ C.Santa Mónica,20.72832,-103.384156
(ZPN-022) Av. Aurelio Ortega / C. Morelos,20.722427,-103.383
(ZPN-025) Av. V. Carranza / Av. Jose Simeon,20.731202,-103.380651
(ZPN-027) C. 5 de Mayo / C. Noviembre,20.720452,-103.388629
(ZPN-028) Av. F. Aranguren / Av. Laureles,20.737087,-103.401285
(ZPN-029) C. La Villa / C. Cuauhtémoc,20.728147,-103.393858
(ZPN-030) Av.Juan Pablo II / Lázaro Cárdenas,20.736557,-103.401357
(ZPN-031) C. Niño Obrero/Calz Lázaro Cárdenas,20.67342,-103.40945
(ZPN-032) Calz Lázaro Cárdenas / Av San Fco,20.67195,-103.40641
(ZPN-033) Av Lázaro Cárdenas / Av San Ignacio,20.6707,-103.40458
(ZPN-034) C. San Demetrio / C. Niño Obrero,20.66984,-103.40968
(ZPN-035) C. San Juan Bosco / Av. San Ignacio,20.66844,-103.40495
(ZPN-036) C. Niño Obrero /C José María Robles,20.66731,-103.40953
(ZPN-037) Av. San Ignacio / Av. Guadalupe,20.666914,-103.402512
(ZPN-038) C. Santa Rita / Av. Guadalupe,20.666033,-103.40687
(ZPN-039) Av. Niño Obrero / C. Juan Diego,20.66312806,-103.4079076
(ZPN-040) C. Santa María / C. Árbol,20.66033761,-103.4037559
(ZPN-041) C. 12 de Diciembre / C. Juan Diego,20.66463,-103.404
(ZPN-042) C. Tonatiuh / Av. Netzahualcóyotl,20.65925105,-103.4065612
(ZPN-043) C. Ermita / C. Del Árbol,20.65938,-103.40195
(ZPN-045) Av. Tizoc / C. Iztaccíhuatl,20.65701,-103.40464
(ZPN-046) Av. Cubilete / Av. López Mateos,20.656866,-103.397725
(ZPN-047) Av. Tizoc / Av. López Mateos,20.65381,-103.40134
(TLQ-001) BlvrdGarcía Barragán/C. Río Tajo,20.64483,-103.31948
(TLQ-002) C. Juárez / Av. Niños Héroes,20.6383352,-103.3163317
(TLQ-003) C. Contreras Medellín/Donato Guerra,20.64193,-103.31366
(TLQ-004) C. Donato Guerra / C. Obregón,20.64185,-103.3106
(TLQ-005) C. Zalatitán / C. Jalisco,20.64188,-103.30651
(TLQ-007) Blvrd.García Barragán/Donato Guerra,20.64176,-103.31716
(TLQ-009) C. Progreso / C. Juárez,20.63816,-103.31148
(TLQ-010) C. Zaragoza / C. Emilio Carranza,20.63834,-103.30952
(TLQ-011) C. Jalisco / C. Hidalgo,20.63922,-103.30465
(TLQ-012) C. Paseo Don Bosco / C. Tonalá,20.63613,-103.3019
(GDL-087) Av. Américas / Av. López Mateos,20.69493,-103.37333
(GDL-088) Av.Plan de San Luis/C. Andrés Teran,20.6972,-103.36773
(GDL-089) C. Juan Álvarez / C. Cruz Verde,20.68456,-103.35699
(GDL-090) Calz. Federalismo / C. Durango,20.69865,-103.35519
(GDL-091) C. Magisterio /Av. M. Ávila Camacho,20.696097,-103.349382
(GDL-092) Calz Federalismo / Av Plan San Luis,20.69610588,-103.3549492
(GDL-093) C. H Colegio Militar / Av. Américas,20.69311,-103.37298
(GDL-094) C. Manuel Cambre / C. Andrés Teran,20.69324,-103.36757
(GDL-095)  C. Mariano Bárcena / Maestros,20.692725,-103.3516
(GDL-096) C. Jesús García / C. González Orte,20.6891,-103.35071
(GDL-097) C. María Vigil / C. Juan N Cumplido,20.6893258,-103.3581231
(GDL-098) Calz. Federalismo / Av. Maestros,20.6919612,-103.3540408
(GDL-099) C. Eulogio Parra /C.González Ortega,20.687196,-103.350525
(GDL-100) C. Ayuntamiento/C. A. R. Plasencia,20.69269,-103.37082
(GDL-101) C. Amado Nervo /C. José María Vigil,20.68969,-103.37486
(GDL-102) C. María Vigil/C. Manuel M. Dieguez,20.68985,-103.37071
(GDL-103) J. Clemente Orozco /C. Jesús García,20.68861,-103.365814
(GDL-104) C. Pedro Loza / Av. Manuel Acuña,20.68348,-103.34853
(GDL-105) C. Pino Suárez / C. Joaquin Angulo,20.6822,-103.34601
(GDL-106) C. Juan Álvarez / C. Belén,20.68465,-103.34526
(GDL-107) Calz. Federalismo/C. J. María Vigil,20.68981,-103.353973
(GDL-108) C. Hospital / C. Alameda,20.68586,-103.33964
(GDL-109) C. Eulogio Parra / Av. Américas,20.68725,-103.37363
(GDL-110) C. Manuel Diéguez/Av. Eulogio Parra,20.68723,-103.37084
(GDL-111) C. José Palomar / C. Hospital,20.6863794,-103.3368076
(GDL-112) C. C. Orozco/C. Gral. Eulogio Parra,20.687,-103.36582
(GDL-113) C. Ghilardi / C. Arista,20.6880337,-103.362716
(GDL-114) C. Monte Cáucaso / C. Alameda,20.68925,-103.3361
(GDL-115) Calz. Federalismo / C. Fco. Zarco,20.68605,-103.35408
(GDL-116) Av Manuel Acuña/C. Pablo Villaseñor,20.68447,-103.37989
(GDL-117) Av Manuel Acuña / C Fray Fco Frejes,20.68427,-103.37653
(GDL-118) C. Antonio de León / C. Garibaldi,20.68168,-103.38197
(GDL-119) C. Fco Rojas González /C. Garibaldi,20.68153,-103.3785
(GDL-120) C. Agustín de la Rosa /C. Garibaldi,20.68132,-103.37537
(GDL-121) C. Tomás V. Gómez / Av. México,20.67914,-103.38253
(GDL-122) C. Fray Luis DePalacio/ Av. México,20.67947,-103.37926
(GDL-123) C. Aurelio L. Gallardo / Av. México,20.67945,-103.376
(GDL-124) C. Severo Díaz / C. Justo Sierra,20.67741,-103.38387
(GDL-125) C. Pablo Villaseñor / Av. Hidalgo,20.67691,-103.37993
(GDL-126) C. Aurelio L. Gallardo / Av Hidalgo,20.67647,-103.37606
(GDL-127) Av. Vallarta / Av. de Los Arcos,20.67438,-103.38488
(GDL-128) Av. Morelos / C. Emilio Castelar,20.67554,-103.38409
(GDL-129) C. Lope de Vega / Av. Vallarta,20.67455,-103.37998
(GDL-130) C. J. Ruíz de Alarcón / Av Vallarta,20.67448,-103.37618
(GDL-131) C. Emilio Castelar / Av. La Paz,20.67206,-103.384
(GDL-132) C. Lope de Vega / Av. La Paz,20.67207,-103.37997
(GDL-133) C. J. Ruíz de Alarcón / Av. La Paz,20.67189,-103.37608
(GDL-134) C. Agustín Yáñez / C. Fco Ugarte,20.670209,-103.384221
(GDL-135) C. Victoriano Agüeros / Av. Unión,20.66868,-103.3731
(GDL-136) C. Lope de Vega/C. Efraín Glez Luna,20.66927,-103.37983
(GDL-137) C. Ruíz de Alarcón/C. Efraín G Luna,20.66957,-103.37623
(GDL-138) C. de la Nebulosa / C. Placeres,20.66557,-103.39134
(GDL-139) C. Firmamento / Av. Niños Héroes,20.66667,-103.38863
(GDL-140) C. Constelación / Av. de los Arcos,20.66816,-103.38488
(GDL-141) C. Ruíz de Alarcón/C. Agustín Yáñez,20.66702,-103.37621
(GDL-142) C. De la Nebulosa / C. Firmamento,20.6647,-103.38855
(GDL-143) C. Eclipse / Av. de Los Arcos,20.6625,-103.38407
(GDL-144) C. Primo Feliciano / C. San Gabriel,20.669931,-103.394307
(GDL-145) C. San Miguel / Av. San Francisco,20.66736,-103.3947
(GDL-146) Av. Guadalupe / C. Boturini,20.6662882,-103.3988986
(GDL-147) Calz. Lázaro Cárdenas/Av. Guadalupe,20.66623,-103.39654
(GDL-148) C. San Rafael / Av. Tepeyac,20.66501,-103.39788
(GDL-149) Calz. Lázaro Cárdenas/López Mateos,20.66511,-103.39388
(GDL-150) C. Asunción / Av. Chapalita,20.661387,-103.392533
(GDL-151) C. Capuchinas / Av. Chapalita,20.66,-103.39496
(GDL-152) Parque de las Estrellas/C. Orión,20.65931,-103.38884
(GDL-153) C. Crepúsculo / Av. Tonantzin,20.65846,-103.39092
(GDL-154) C. Capuchinas / Av. Las Rosas,20.65761,-103.39363
(GDL-155) Parque de las Estrellas/Mariano Ote,20.65712973,-103.3883797
(GDL-157) Av. Mariano Otero/ Av. De las Rosas,20.654709,-103.391595
(GDL-158) Av. Faro / Av. Las Rosas,20.65158,-103.38957
(GDL-159) C. Guadalupe Victoria /Del Ejercito,20.66468,-103.33357
(GDL-160) C.Silverio Garcia/Blvrd. García Ba,20.66114,-103.3315
(GDL-161) C. Rio Usumacinta/Blvrd García Barr,20.65925,-103.33055
(GDL-162) C. Rio Tuxpan / C. Salvador Lopez C,20.65721,-103.33046
(GDL-163) C. Corregidora / Blvrd. García B.,20.657817,-103.32898
(GDL-164) Av. Olímpica /C. José Rolon,20.655,-103.32186
(GDL-165) C. Rio Panuco/ Blvrd. García B.,20.65251,-103.32553
(GDL-166) C. Rio Principal / Blvrd. García B.,20.65475,-103.32719
(GDL-167) C. Rio San Juan de Dios/Blvrd. Garc,20.64962,-103.32356
(GDL-168) Av. Rio Nilo / C. Ramón Pacheco,20.64874,-103.31939
(GDL-169) Blvrd. García Barragán/ C. Rio Zapo,20.64707,-103.32147
(GDL-170)  C. Relojeros/ C. Chamizal,20.64698,-103.30619
(GDL-171) C. Maquinistas / C. San Rafael,20.6461,-103.3102
(GDL-172) C. Chamizal / Av. Rio Nilo,20.64434,-103.30678
(GDL-173) C. Caballerango / C. Caporales,20.64504,-103.30518
(GDL-174) C. Juan de Zumárraga / Av. Tepeyac,20.6641,-103.4003
(GDL-175) C. Ermita / C. San Uriel,20.66234072,-103.3981344
(GDL-176) C. San Bonifacio/ Paseo Benedictino,20.67276201,-103.3976249
(GDL-177) C. Fray Fco Frejes / C. Fco Zarco,20.68669,-103.37657
(GDL-178) Salvador Quevedo/López Portillo,20.6853596,-103.3339031
(GDL-179) C. Monte Cáucaso / C. Sierra Nevada,20.68795,-103.33343
(GDL-180) C. Montes Pirineos/Salvador Quevedo,20.68692,-103.33467
(GDL-181) C.Ignacio Rmrz / Av Plan de San Lui,20.69705,-103.36322
(TLQ-006) C. Miguel Hidalgo / Calz. Revolució,20.639042,-103.301239
(GDL-156) C. Duque de Rivas/ C. López Cotilla,20.6731682,-103.3826893
(GDL-020) C. General Coronado / C.Juan Manuel,20.67848,-103.365103
(GDL-182) C. General Coronado / C. Manuel Acu,20.6843419,-103.3646036
(GDL-183) Calz. Independencia / Av. Niños Hér,20.6639862,-103.3480775
(GDL-184) Ingreso Cucei / Revolución,20.659581,-103.324147
(GDL-185) Dr. Silverio García /Av. Revolución,20.66318,-103.32942
(GDL-186) C. Argentina / C. Francia,20.66429,-103.3628
(GDL-187) Av. 16 de Septiembre / C. Priscilia,20.6729309,-103.3473189
(GDL-188) Av. de la Presa / Av. Manuel A. Cam,20.70928,-103.37015
(GDL-189) C. 5 de Mayo/ Av. Revolución,20.6692,-103.34116
(GDL-191) Plaza de los Mariachis,20.6744,-103.34123
(GDL-192) Calle A1 / Av. Manuel A. Camacho,20.70656,-103.36564
(GDL-193) C. Hawai / C. Nicolás Romero,20.70211,-103.35996
(GDL-194) Av. Revolución / C. Manuel López Ve,20.65048,-103.30999
(GDL-195) C. Ramón Corona / Av. Juárez,20.67529,-103.34656
(GDL-196) C. Esmeralda / C. Manuel Acuña,20.68361,-103.33756
(GDL-197) Av. Río Nilo / Av. Revolución,20.64517,-103.30313
(GDL-198) Av. Alcalde / C. Hospital,20.68504,-103.34796
(GDL-199) C. Jesús García/Av. Alcalde,20.6891,-103.34806
(GDL-200) Av. Alcalde /Av. Manuel A. Camacho,20.69406,-103.34824
(GDL-201) Av. de los Normalistas / C. M. Guti,20.69442,-103.34474
(GDL-202) C. Magisterio / C. Durango,20.69898,-103.34893
(GDL-203) Av. Federalismo / C. Tamaulipas,20.70046,-103.35478
(GDL-204) C. España/ Av. Chapultepec,20.6651,-103.36807
(GDL-205) Av. Agustín Yáñez /C. Venezuela,20.66265,-103.36554
(GDL-206) C. Suiza / Av. Enrique Díaz de león,20.66231,-103.36011
(GDL-207) C. Lázaro Pérez / C. Escorza,20.66563,-103.35802
(GDL-208) Av. España / Av. Federalismo,20.66081,-103.35704
(GDL-209) Calz. del Campesino / Calz. Indepen,20.6605183,-103.3503245
(GDL-210) Av. Washington / Calz. Independenci,20.65775,-103.35132
(GDL-211) Av. Washington / C. Rusia,20.65883,-103.35468
(GDL-212) C. Nicolás Romero / C. Jaime Nunó,20.70047,-103.36158
(ZPN-023) Blvrd. de la Espuela / C. Silvano B,20.73231,-103.38763
(ZPN-024) C. Francisco Sarabia / Av. Laureles,20.73445,-103.3985614
(ZPN-048) Av. J. Parres Arias / Prol. López C,20.72958,-103.38859
(ZPN-049) Ávila Camacho/ Lábaro Patrio,20.7178,-103.38338
(ZPN-050) C. el Mediero / Prol. Laureles,20.73432,-103.38427
(ZPN-051) Av. Periférico G. Morín / Av. J. Pa,20.73837,-103.38057
(ZPN-052) C. del Pial / C. del Vigía,20.73245,-103.39291
(ZPN-053) Prol. Laureles / Av. Periférico G.,20.73836,-103.38299
(ZPN-054) Av. J. Parres Arias / C. Ignacio Ja,20.73441,-103.38079
(ZPN-055) Prol. Laureles / Av. J. Parres Aria,20.73154,-103.38515
(ZPN-056) Av. M. Ávila Camacho / C. San Jorge,20.71365,-103.37742
(TLQ-008) C. Independencia / C. Allende,20.639187,-103.3086
(GDL-217) C. Ontario / Av. Manuel Acuña,20.684519,-103.383085
(GDL-214) C. Chihuahua / C. Miguel Galindo,20.702745,-103.356511
(GDL-223) C. Dr. Pérez Arce/ C. Gómez Farias,20.6679675,-103.326566
(ZPN-066) C. Cuauhtémoc / Av. Tepeyac,20.660955,-103.408683
(GDL-215) C. Durango / C. Gregorio Davila,20.6991544,-103.3599679
(ZPN-065) C. Del Carmen / Av. Guadalupe,20.6649061,-103.4109615
(ZPN-064) C. Sto de Aquino / Av. Sta Teresa,20.6669929,-103.4133282
(ZPN-063) C. San Felipe Neri / Av. Guadalupe,20.6644831,-103.4130582
(GDL-216) C. Tepic / C. Frías.,20.6964426,-103.3592252
(ZPN-067) C. Chimalhuacán / Av. López Mateos,20.6515919,-103.4027691
(ZPN-057) C. Escultores / Av. Guadalupe,20.6637066,-103.4178168
(ZPN-062) C. Loyola / C. Organización,20.6604258,-103.4136351
(ZPN-061) C. Organización / Av. Guadalupe,20.6638448,-103.4151424
(ZPN-060) C. De Los Leones / Av. Tepeyac,20.6587944,-103.41456
(GDL-224) C. Reyes Flores/ C.Federico Medrano,20.6649445,-103.3266332
(GDL-222) C. Aldama / C. Dr. Leonardo Oliva,20.6674498,-103.3295016
(ZPN-058) Av. Labna / Av. Tepeyac,20.656551,-103.4194212
(ZPN-059) C. Prados los Pinos/ Av. Tepeyac,20.6579741,-103.4173432
(GDL-218) C.Hércules / Av. De la Arboleda,20.664447,-103.3853111
(GDL-225) C. Gral Carlos Fuero/Av. Revolución,20.6542657,-103.3159228
(GDL-213) C. Palavicini / Av. Circunvalación,20.70467,-103.345589
(GDL-221) De los científicos/ J. J. Tablada,20.700192,-103.345961
(GDL-226) C. Luis G. Cuevas /Av. Revolución,20.652408,-103.312902
(GDL-219) C. D. Rivera / C. Filósofos,20.698197,-103.342554
(GDL-227) C. Artistas / C. Carlos Pereira,20.695636,-103.339378
