Station,lat,lon
7th & Flower,34.0485,-118.25854
Olive & 8th,34.04554,-118.25667
5th & Grand,34.05048,-118.25459
Figueroa & 9th,34.04661,-118.26273
11th & Maple,34.03705,-118.25487
Figueroa & Pico,34.04113,-118.26798
Union Station West Portal,34.05661,-118.23721
Los Angeles & Temple,34.0529,-118.24156
Grand & Olympic,34.04373,-118.26014
12th & Hill,34.03861,-118.26086
Hill & Washington,34.03105,-118.26709
3rd & Santa Fe,34.04607,-118.23309
Hope & 1st,34.05772,-118.24897
Grand & Washington,34.03286,-118.26808
Figueroa & Cesar Chavez,34.06318,-118.24588
Spring & 3rd,34.04998,-118.24716
Grand & Temple,34.05832,-118.24609
Main & 1st,34.05194,-118.24353
7th & Spring,34.0447,-118.25244
Hope & 6th,34.04989,-118.25588
Main & 9th,34.04099,-118.2558
Hope & 11th,34.04206,-118.26338
Figueroa & 8th,34.0484,-118.26095
Willow St & Mateo St,34.03919,-118.23253
Imperial & 7th,34.0348,-118.23128
Wilshire & Witmer,34.05357,-118.26636
1st & Central,34.0493,-118.23881
18th & San Pedro,34.02851,-118.25667
2nd & Hill,34.05287,-118.24749
Pico & Flower,34.03998,-118.2664
5th & Hewitt,34.04169,-118.23535
2nd & Figueroa,34.05697,-118.25359
7th & Bixel,34.0511,-118.26456
Factory Place & Alameda,34.03922,-118.23649
Grand & 14th,34.03746,-118.26538
Industrial St & Mateo St,34.0358,-118.23317
3rd & San Pedro,34.04775,-118.24317
Pershing Square,34.04804,-118.25374
Grand & 8th,34.04613,-118.25759
New High & Ord,34.06056,-118.23833
Spring & College,34.06339,-118.23616
Grand & 3rd,34.0532,-118.25095
Broadway & 3rd,34.05088,-118.24825
Hope & Olympic,34.04417,-118.26117
Broadway & 9th,34.04211,-118.25619
9th & Los Angeles,34.0406,-118.25384
8th & Wall,34.03987,-118.25004
Hill & College,34.06428,-118.23894
Temple & Vignes,34.05014,-118.23319
Stanford & 12th,34.03189,-118.25018
Traction & Rose,34.04652,-118.23741
Abbot Kinney & Cadiz,33.99116,-118.46829
Washington & Abbot Kinney,33.98842,-118.45163
Venice & Lincoln,33.99377,-118.45367
California & Lincoln,33.99834,-118.46101
Rose & 7th,34.00088,-118.46891
Rose & Rennie,33.99868,-118.47298
Rose & Main,33.99624,-118.47745
Ocean Front Walk & North Venice,33.98434,-118.47155
Pacific & North Venice,33.98493,-118.46996
Windward & Main,33.98813,-118.47174
7th & Westminster,33.99537,-118.4648
Ocean Front Walk & Navy,33.99556,-118.48155
Downtown Santa Monica E Line Station,34.01431,-118.49134
17th St / SMC E Line Station,34.02339,-118.47964
Broadway & 11th,34.04031,-118.25827
Park & Echo Park,34.07483,-118.25873
Grand / LATTC,34.0298,-118.27031
University & Hoover,34.02404,-118.28341
32nd & Figueroa,34.02371,-118.27917
25th & Vermont,34.03364,-118.29131
29th & Ellendale,34.02835,-118.28867
Figueroa & McCarthy Way,34.0203,-118.28118
Severance & Adams,34.03017,-118.28095
Hoover & 29th,34.02868,-118.28411
Seabluff & Runway,33.97366,-118.42286
28th & Figueroa,34.02629,-118.27769
28th & University,34.02762,-118.28068
Hoover & 32nd,34.02586,-118.2841
Expo Park/LAFC,34.01252,-118.2859
Westlake & 3rd,34.06228,-118.27152
Union & Olympic,34.04887,-118.2743
Maubert & Vermont,34.09905,-118.2915
Vermont Pl & Vermont ,34.09249,-118.29144
Sunset & Virgil,34.09801,-118.28707
Shatto Pl & Wilshire,34.06258,-118.29009
8th & Vermont,34.05765,-118.29218
7th & Berendo,34.05969,-118.29466
4th & Vermont,34.06699,-118.29088
Westlake/MacArthur Park Station,34.05681,-118.275
7th & Park View,34.05771,-118.27976
Union & 7th,34.05403,-118.27092
Row DTLA,34.03352,-118.24184
Kenmore & 3rd,34.06927,-118.29659
Vermont & Beverly,34.07561,-118.29186
Albany & Olympic,34.04813,-118.27103
Berendo & Olympic,34.0519,-118.29368
Normandie & Hollywood,34.10189,-118.30061
Kenmore & 6th,34.06335,-118.2968
Vermont & Franklin,34.10578,-118.29194
Franklin & Hillhurst,34.10536,-118.28727
Hoover & Fountain,34.09493,-118.28456
Santa Monica & Virgil,34.09097,-118.28625
Wilshire & Alexandria,34.06166,-118.29824
University & 30th,34.02662,-118.28181
Normandie & Sunset,34.098,-118.30047
Figueroa & Jefferson,34.02209,-118.27979
Wilshire & Hobart,34.06162,-118.30557
Sunset & Douglas,34.07364,-118.25157
James M. Wood & Alvarado,34.05323,-118.27842
Rampart & Wilshire,34.0616,-118.28199
23rd St & Flower,34.03027,-118.27319
12th & Valencia,34.04557,-118.27419
Virgil & 6th,34.06349,-118.28716
Melbourne & Vermont,34.10363,-118.29131
Hillhurst & Kingswell,34.10233,-118.28746
Lucile & Hoover,34.08265,-118.28439
Vermont & Exposition,34.0179,-118.29172
Rowena & Hyperion,34.10936,-118.27181
Ardmore & Olympic,34.05243,-118.30202
Hollywood & Rodney,34.10011,-118.28986
Santa Monica & Sunset,34.0926,-118.28093
Vendome & Beverly,34.07159,-118.28229
Ambrose & Hillhurst,34.11003,-118.28716
San Pedro & Winston,34.04518,-118.24325
Sunset & Silver Lake,34.08252,-118.27272
Yucca & Argyle,34.10385,-118.32546
Tracy & Hyperion,34.10424,-118.2737
Ellendale Pl & Adams,34.0315,-118.28874
Figueroa Plaza,34.05896,-118.25059
Wilcox & Fountain,34.09437,-118.33101
Glendale & Silver Lake,34.1007,-118.25912
Vista Hermosa Park,34.06126,-118.2586
Broxton & Weyburn,34.06211,-118.44692
Figueroa & 4th,34.05355,-118.25584
Main & Winston,34.04744,-118.24794
Westwood/Rancho Park E Line Station,34.03687,-118.4255
Sunset Triangle Plaza,34.09028,-118.27719
Laveta Terrace & Sunset,34.07598,-118.25601
Western & Hollywood,34.10164,-118.30917
Mohawk Bend,34.07735,-118.26455
Union Station East Portal,34.05628,-118.23177
Figueroa & 11th,34.04381,-118.26497
Edgemont & Melrose,34.08371,-118.29602
Purdue & Santa Monica,34.04655,-118.45144
Mississippi & Sawtelle,34.03974,-118.44227
7th & Hill,34.04585,-118.2544
Highland & Hollywood,34.10196,-118.33885
Normandie & 8th,34.05797,-118.29975
Inglewood & Ballona,33.99032,-118.41205
Western & 3rd,34.06875,-118.30928
Wilshire & Normandie,34.06163,-118.30119
Hawthorn & Orange,34.10038,-118.3418
Franklin & Fuller,34.10338,-118.34919
McCadden & Hollywood,34.102,-118.33741
Glendon & Kinross,34.06097,-118.44437
Whitley & Hollywood,34.10186,-118.33329
Ivar & Hollywood,34.10186,-118.32811
Venice & Abbot Kinney,33.98908,-118.46226
Highland & Sunset,34.09823,-118.33882
5th & Western,34.06543,-118.30882
Cherokee & Hollywood,34.10176,-118.33474
1st & Utah,34.04776,-118.22541
Toes Beach at Culver Blvd,33.95718,-118.45125
Dockweiler Beach at Imperial Hwy,33.92846,-118.4352
Vista Del Mar & Culver,33.95879,-118.44828
Expo/Bundy E Line Station,34.0314,-118.45363
Stanford & Washington,33.9897,-118.44888
Durango & Venice,34.02683,-118.39352
Barrington & National,34.02245,-118.43833
Culver & Centinela,33.99097,-118.4213
Venice & Beethoven,33.99958,-118.44136
Venice & Colonial,34.00351,-118.43438
Venice & Inglewood,34.00587,-118.42916
McLaughlin & Venice,34.00902,-118.42501
Venice & Sawtelle,34.0118,-118.41944
Bagley & Venice,34.02569,-118.3953
Palms & Kelton,34.02199,-118.4165
Sepulveda & Charnock,34.01737,-118.4206
Sepulveda & Palms,34.02006,-118.42268
Sepulveda & National,34.02697,-118.42821
Venice & Glendon,34.01745,-118.40957
Expo/Sepulveda E Line Station,34.03535,-118.43414
Alla & Maxella,33.98995,-118.43467
Venice & Hughes,34.02339,-118.39922
Venice & Motor,34.02018,-118.40403
Palms E Line Station,34.02912,-118.40317
Palms & Motor,34.02655,-118.40846
Sepulveda & Venice,34.01376,-118.4178
Rose & Overland,34.02765,-118.41356
National & Motor,34.02948,-118.41047
Westwood & National,34.03047,-118.42098
Lucerne & Sepulveda,34.00031,-118.40253
Motor & Regent,34.02258,-118.40551
Inglewood & Braddock,33.99302,-118.41491
Main & 8th,34.04298,-118.25295
Alla & Glencoe,33.98486,-118.43113
Centinela & Lucile,33.98292,-118.41093
Playa Vista Library,33.97024,-118.42607
Westlawn & Beatrice,33.98099,-118.41488
McConnell & Runway,33.97619,-118.41842
Fountain & Vine,34.09435,-118.32636
Wiltern,34.06079,-118.30907
Chandler & Colfax,34.16835,-118.3875
Chandler & Laurel Canyon,34.16833,-118.39616
Magnolia & Clybourn,34.16522,-118.35515
North Hollywood Plaza,34.16552,-118.37515
Chandler & Cahuenga,34.16875,-118.36187
Lankershim & Califa,34.17765,-118.38231
Lankershim & Hesby,34.16171,-118.37282
Magnolia & Cartwright,34.16495,-118.36363
Riverside & Cahuenga,34.15214,-118.36195
Lankershim & Vineland,34.15832,-118.37081
Mariota & Riverside,34.152,-118.3506
North Hollywood Station,34.16863,-118.37707
Gateway Plaza,34.06975,-118.44535
Perloff Hall,34.07365,-118.43984
Argyle & Hollywood ,34.10185,-118.32514
7th & Westmoreland,34.05978,-118.28854
Maxella & Glencoe,33.98667,-118.44095
Drake Stadium,34.07262,-118.44944
Weyburn Terrace,34.06186,-118.45002
University Village (Sawtelle Blvd),34.02341,-118.42901
Arizona Ave & 16th St,34.02705,-118.48518
