Station,lat,lon
Hôtel de ville,43.29613110303592,5.370772717518662
Grand Rue,43.29777432269154,5.370874697052955
Quai du Port,43.29573017,5.367354992
Coutellerie,43.29679958,5.372909688
Place de Lenche,43.29716293,5.365865775
Place aux huiles,43.293258515940494,5.371585560104336
Sadi-Carnot,43.29972361,5.371828908
La Criée,43.292748522069814,5.368401671786842
Canebiere - Beauvau,43.29527892,5.375048465
Canebiere Reine Elisabeth,43.29574849,5.375219826
La Major,43.299208852029665,5.365546894429258
Colbert Ste Barbe,43.299242645590766,5.374807305735999
Centre Bourse,43.29693502454282,5.376544207099414
Cours Jean Ballard,43.29300892,5.374584208
Sainte - Notre-Dame,43.291674744737406,5.371582564461846
Canebière Saint-Ferreol,43.29626342443967,5.377094272796853
MUCEM,43.29843273,5.362774233
Jules Guesde,43.30142931593264,5.374129631885239
Place de la Corderie,43.29077871,5.371481915
Schuman - Leca,43.30193874,5.366285878
Sainte - Lulli,43.29266329418829,5.376388862887325
République Joliette,43.30304044330242,5.3689868025954866
Saint-Ferréol - Davso,43.29360042,5.378349882
Pierre Puget - Breteuil,43.290326899868546,5.375711092245979
Endoume - Corderie,43.28918361,5.366407727
Livon - Vieux-Port,43.2923113,5.360730586
Académie - Capucins,43.29601993155862,5.381084217359557
Ferry-Nédelec,43.30278357,5.377157667
Corse - Saint Maurice,43.28946766,5.363719459
Canebière - Dugommier,43.29803718,5.381065715
Allées Gambetta,43.29902797,5.381509226
Joliette - Dunkerque,43.30536824089319,5.367343057645485
Estrangin,43.28974291012639,5.378303806996655
Paris - Forbin,43.30598899,5.372249573
Pasteur,43.29063067145421,5.359243592567395
Les Docks - Terrasses du Port,43.30570589746745,5.365654336110538
Livon - Pasteur,43.29199367364626,5.357886145002112
Notre-Dame - Dragon,43.2869613,5.373784575
Rome - Salvator,43.29099525,5.381360991
Char Jeanne d'Arc - Notre Dame de La Garde,43.286038666099785,5.370678521004038
Rome Sylvabelle,43.290099616284294,5.3812689520102595
Saint Charles - Faculté,43.30460633,5.379025685
Vallon Jourdan,43.286593099737644,5.363346223953386
Cours Julien - Frères Barthelemy,43.29264247456925,5.384253993651782
Réformés Canebière,43.29971664630074,5.384845163546515
Place du 4 Septembre,43.28856007,5.358371494
Sibie - Curiol,43.29528961,5.385580554
Paradis - Vignerons,43.287184431033836,5.379370104893951
Plage des Catalans,43.29010343949329,5.356114229700495
Plaine - Saint-Pierre,43.29416247655675,5.386291983910837
Strasbourg - Leca,43.30794517,5.376487141
Euromediterrannee Gantes,43.30907565,5.368464875
Hôpital Européen,43.30903370006192,5.371782666402396
Notre-Dame - Vauban,43.28399833,5.375062072
Lodi - Berlioz,43.29033593310825,5.386424884249209
National - Guibal,43.30536406,5.384119039
Tivoli - Roosevelt,43.29876369,5.388973392
National - Belle de Mai,43.3080124,5.38151142
Saint-Eugène,43.28453826179185,5.358657022621628
Chave Eugene Pierre,43.29516935,5.390426195
Paradis - Escat,43.283497890652455,5.380948347618755
Castellane,43.28479294027045,5.384113381462271
National - Hoche,43.311125001287195,5.377624232911899
Arenc - Chanterac,43.31223933,5.368561815
Baille - Friedland,43.28659467,5.386795143
Flammarion - Isoard,43.3042781513621,5.388867929313619
Liberation - Isoard,43.30084993931786,5.390856183778169
Place du Terrail,43.280390122603876,5.369296566841854
Vallon Montebello,43.28104431,5.378308143
Tour La Marseillaise,43.31339141270814,5.367060274332289
Camas - Jaubert,43.29781526590139,5.393547700948375
Saint-Pierre - Hugueny,43.291994145747765,5.3929067825579295
Vallon des Auffes,43.285848320041225,5.350786907401925
Longchamp - Grobet,43.30299233959067,5.39213628647542
Chave - Goudard,43.295196228553976,5.3939698617419936
Rouet,43.28350153,5.386470818
National Métro,43.314811272541334,5.37310339134342
Baille - Vertus,43.288501054747115,5.393086808343014
Libération - Chape - Espérandieu,43.30200819,5.394693835
Périer - Cremieux,43.2790871519652,5.380114290305642
Corniche - Malmousque,43.2842190593168,5.3496997679310425
Corniche - Endoume,43.28274440346115,5.35053287799019
Flammarion- Montricher,43.3059935,5.393687137
Place Cadenat,43.3117222,5.387246838
Friche Belle de Mai,43.30958896,5.390258304
Place Sébastopol,43.29868093,5.397225175
Toulon - Menpenti,43.28446199,5.39212117
Place Placide Caffo,43.3135706,5.3848289
Briffaut Camas,43.29431413,5.397498439
Belle vue,43.315289087463555,5.38034926547175
Baille - Hôpital Conception,43.28936349,5.396322259
Prado - Périer,43.27974223,5.387440377
Pierre Roux,43.28572971621563,5.394991516440086
Auphan - Vaillant,43.31707549,5.377366738
Vallon de l’Oriol,43.27617976729073,5.361008732708797
Foch - Fayolle,43.30111738,5.398795435
Cinq Avenue Longchamp,43.30427414673173,5.397513231939001
Chave - Sakakini,43.29571281,5.399639378
Jean Moulin - Hôpital La Timone,43.290412249633505,5.399632919528813
Sakakini - Saint-Pierre,43.29272355,5.401130777
Chute Lavie Dahdah,43.309037596219014,5.396545511971453
Blancarde - Duparc,43.30275907,5.400792795
Paradis - Lord Duveen,43.27562456,5.384392134
Plage du Prophète,43.273613112520195,5.362704849368924
Jean Moulin - Sainte Baume,43.28715402,5.39997873
Prado - Lord Duveen,43.27676858722245,5.388786515806714
Liandier - Rouet,43.278398597227664,5.392138782316124
Duparc - Brossolette,43.30641234314123,5.40103548654406
Foch - Boisson,43.297946098534624,5.404062681086202
Bon Secours - Huilerie,43.319935427116775,5.381699103765641
Reboul - Argile,43.28078426,5.396621812
Sainte-Marthe - Glacière,43.31755747,5.390173087
Chutes Lavie - Guigou,43.31329084715776,5.396838371330546
Blancarde - Gare SNCF,43.29626348,5.406009668
Eglise des Chartreux,43.30937085,5.401449029
Rond Point du Prado,43.27312918982443,5.390725360406577
Place Dalmas,43.32287191,5.382756282
Saint-Just - Labry,43.31260893,5.401662431
Rabateau - Hôpital Saint-Joseph,43.27410312139213,5.394016006213974
Place Pol Lapeyre,43.2925709464964,5.40910662501517
Prado - Michelet,43.27211634133852,5.391746867406027
Prado - Paradis,43.26946672,5.386439042
Sainte-Marthe - Moretti,43.32366978,5.38883641
Negresko - Paulet,43.26931867,5.389396978
Prado - Gabes,43.2668101,5.382693941
Louis Armand,43.29957938303167,5.413255322900113
Gèze,43.3283706355171,5.366912086186176
Saint-Just - Le Dôme,43.31652283667526,5.4043665678689194
Saint-Barnabé - Haguenau,43.30418846,5.412903941
Huveaune - Curtel,43.27812844,5.407194838
Michelet - Huveaune,43.26796562,5.393976415
Capelette - Forges,43.27946481,5.410561214
Mazargues - Huveaune,43.265570946669925,5.390032250158811
Huveaune - Borely,43.26201967835499,5.3792991458357164
Perrin - Le Moulin,43.31917923,5.407725382
Place Caire,43.30383732,5.41872428
Mendès France Huveaune,43.260224964054686,5.3754548502465695
Pierre Paraf,43.33044176,5.38914807
Augustin Aubert,43.26795854639917,5.402685214151916
Parc Corot,43.32346361240647,5.406297409546596
Pont de Vivaux,43.2799602511721,5.416624366102042
Rolland - Platanes,43.271387568961586,5.40926929141915
La Boiseraie,43.29552256279197,5.422926314883398
318 Mazargues,43.26069975,5.393983394
Malpassé Métro,43.32004537625261,5.415045773803286
Cité Radieuse,43.26091237294747,5.3975844325293565
La Fourragère,43.30409626543968,5.425385468108061
Clot Bey - Leau,43.25575639,5.38230303
Escale Borély,43.25494658454127,5.3764543491352015
Saint-Paul - Malpassé,43.32660541953149,5.409903287927591
Bois Luzy,43.31078482,5.42430547
Mazargues - Saint Anne,43.258223500058506,5.394368605955606
Lavéran - Diderot,43.3252329242701,5.4143178006645485
Michelet - Luce,43.25865839,5.398934653
Peupliers - Berthelot,43.3371680327555,5.391824847426392
Montolivet,43.31712055,5.423936023
Boulevard Urbain Sud - Verdillon,43.27502818,5.424533793
Boulevard urbain sud - François Mauriac,43.27072082477898,5.422763624666231
Hôpital Sainte-Marguerite,43.25900934682247,5.409290356125894
Saint-Jean du Désert,43.29876838180914,5.436430475000634
Hambourg Rond Point Guerre,43.25002314043684,5.389189832781312
Vieille Chapelle,43.2479001,5.374457344
Beaumont,43.30805059284097,5.43527038728962
Mazargues - Almeras,43.25096566135139,5.395186297530245
Faculté - Saint-Jerôme,43.33611966260352,5.410320835259142
Lapin Blanc,43.24693037,5.38209613
Obélisque de Mazargues,43.25102036834343,5.403214047900747
Zenatti - Malrieu,43.24646666954729,5.388984457266133
Plage de la Pointe Rouge,43.243884231063475,5.370736380062908
Stade Bombardière,43.31710365325108,5.43681784487967
IUT Saint Jérôme,43.34080437,5.41021883
Lancier - Savary,43.245581297728705,5.395069220467349
Corail - Marseilleveyre,43.24062346787065,5.377642413176545
Parc Pastré,43.23958841257124,5.366238242702252
Roy d'Espagne - Floralia,43.24178222403938,5.397261332914354
Madrague de Montredon,43.231922566975584,5.355545384096217
Sormiou,43.23179293755999,5.400044027608033
Luminy - Parc National des Calanques,43.23156159,5.436933396
